{
"type": "FeatureCollection",
"crs": { "type": "name", "properties": { "name": "urn:ogc:def:crs:OGC:1.3:CRS84" } },
"features": [
{ "type": "Feature", "properties": { "CityCode": "J01000007", "CityName": "Birmingham" }, "geometry": { "type": "Point", "coordinates": [ -1.881036235738607, 52.46871921916194 ] } },
{ "type": "Feature", "properties": { "CityCode": "J01000013", "CityName": "Bradford" }, "geometry": { "type": "Point", "coordinates": [ -1.758633263036599, 53.788844203060805 ] } },
{ "type": "Feature", "properties": { "CityCode": "J01000014", "CityName": "Brighton & Hove" }, "geometry": { "type": "Point", "coordinates": [ -0.148583469978784, 50.840679398009996 ] } },
{ "type": "Feature", "properties": { "CityCode": "J01000015", "CityName": "Bristol" }, "geometry": { "type": "Point", "coordinates": [ -2.571821843739475, 51.463030000935539 ] } },
{ "type": "Feature", "properties": { "CityCode": "J01000019", "CityName": "Cambridge" }, "geometry": { "type": "Point", "coordinates": [ 0.142166933908766, 52.201477243991057 ] } },
{ "type": "Feature", "properties": { "CityCode": "J01000021", "CityName": "Carlisle" }, "geometry": { "type": "Point", "coordinates": [ -2.937524140115045, 54.893169060394939 ] } },
{ "type": "Feature", "properties": { "CityCode": "J01000028", "CityName": "Coventry" }, "geometry": { "type": "Point", "coordinates": [ -1.510994692757041, 52.412348274804337 ] } },
{ "type": "Feature", "properties": { "CityCode": "J01000031", "CityName": "Derby" }, "geometry": { "type": "Point", "coordinates": [ -1.470551130862388, 52.912013353937425 ] } },
{ "type": "Feature", "properties": { "CityCode": "J01000032", "CityName": "Doncaster" }, "geometry": { "type": "Point", "coordinates": [ -1.116923525983234, 53.517838103170561 ] } },
{ "type": "Feature", "properties": { "CityCode": "J01000035", "CityName": "Exeter" }, "geometry": { "type": "Point", "coordinates": [ -3.513732683423247, 50.722198200282072 ] } },
{ "type": "Feature", "properties": { "CityCode": "J01000051", "CityName": "Leeds" }, "geometry": { "type": "Point", "coordinates": [ -1.546453543068145, 53.809531885998801 ] } },
{ "type": "Feature", "properties": { "CityCode": "J01000052", "CityName": "Leicester" }, "geometry": { "type": "Point", "coordinates": [ -1.135524354075339, 52.633627463734342 ] } },
{ "type": "Feature", "properties": { "CityCode": "J01000053", "CityName": "Lincoln" }, "geometry": { "type": "Point", "coordinates": [ -0.550041669986779, 53.215810952301801 ] } },
{ "type": "Feature", "properties": { "CityCode": "J01000054", "CityName": "Liverpool" }, "geometry": { "type": "Point", "coordinates": [ -2.909238141628161, 53.406271854331806 ] } },
{ "type": "Feature", "properties": { "CityCode": "J01000058", "CityName": "Manchester" }, "geometry": { "type": "Point", "coordinates": [ -2.215070677403675, 53.473394508483779 ] } },
{ "type": "Feature", "properties": { "CityCode": "J01000062", "CityName": "Newcastle-upon-Tyne" }, "geometry": { "type": "Point", "coordinates": [ -1.631483520535632, 54.990397064823476 ] } },
{ "type": "Feature", "properties": { "CityCode": "J01000066", "CityName": "Norwich" }, "geometry": { "type": "Point", "coordinates": [ 1.287264750469637, 52.640911823976246 ] } },
{ "type": "Feature", "properties": { "CityCode": "J01000067", "CityName": "Nottingham" }, "geometry": { "type": "Point", "coordinates": [ -1.178466886376903, 52.969868816658312 ] } },
{ "type": "Feature", "properties": { "CityCode": "J01000070", "CityName": "Oxford" }, "geometry": { "type": "Point", "coordinates": [ -1.236090085579123, 51.748812155930743 ] } },
{ "type": "Feature", "properties": { "CityCode": "J01000072", "CityName": "Plymouth" }, "geometry": { "type": "Point", "coordinates": [ -4.121574737978769, 50.392564778629691 ] } },
{ "type": "Feature", "properties": { "CityCode": "J01000074", "CityName": "Portsmouth" }, "geometry": { "type": "Point", "coordinates": [ -1.078088452876484, 50.820685961790154 ] } },
{ "type": "Feature", "properties": { "CityCode": "J01000075", "CityName": "Preston" }, "geometry": { "type": "Point", "coordinates": [ -2.704725658407763, 53.774262716556592 ] } },
{ "type": "Feature", "properties": { "CityCode": "J01000080", "CityName": "Salford" }, "geometry": { "type": "Point", "coordinates": [ -2.284832185417168, 53.490712121064014 ] } },
{ "type": "Feature", "properties": { "CityCode": "J01000082", "CityName": "Sheffield" }, "geometry": { "type": "Point", "coordinates": [ -1.455750202144359, 53.377109079332079 ] } },
{ "type": "Feature", "properties": { "CityCode": "J01000087", "CityName": "Southampton" }, "geometry": { "type": "Point", "coordinates": [ -1.397217098074864, 50.921942849643493 ] } },
{ "type": "Feature", "properties": { "CityCode": "J01000088", "CityName": "Southend-on-Sea" }, "geometry": { "type": "Point", "coordinates": [ 0.703686303760448, 51.549220008141155 ] } },
{ "type": "Feature", "properties": { "CityCode": "J01000095", "CityName": "Stoke on Trent" }, "geometry": { "type": "Point", "coordinates": [ -2.156591713629052, 53.015178658702339 ] } },
{ "type": "Feature", "properties": { "CityCode": "J01000096", "CityName": "Sunderland" }, "geometry": { "type": "Point", "coordinates": [ -1.406704527514396, 54.899775588991645 ] } },
{ "type": "Feature", "properties": { "CityCode": "J01000112", "CityName": "York" }, "geometry": { "type": "Point", "coordinates": [ -1.087898145254539, 53.962459663215903 ] } }
]
}
